[
	{
		"id": 1,
		"name": "Konstanzer Münster",
		"category": "Sehenswürdigkeit",
		"description": "Das Konstanzer Münster ist eine imposante Basilika, die über Jahrhunderte das Zentrum des Bistums Konstanz war. Besucher können den Turm besteigen und einen atemberaubenden Blick über die Stadt und den Bodensee genießen.",
		"image": "/images/muenster.jpg",
		"address": "Münsterplatz 1, 78462 Konstanz",
		"coordinates": {
			"lat": 47.663,
			"lng": 9.175
		},
		"timeline": [
			{ "year": "ca. 600", "description": "Gründung einer ersten Bischofskirche." },
			{ "year": "1054-1089", "description": "Neubau der Basilika nach ottonischem Vorbild." },
			{
				"year": "1414-1418",
				"description": "Das Münster ist Schauplatz des Konzils von Konstanz."
			},
			{
				"year": "1844-1853",
				"description": "Neugotische Umgestaltung des Turms durch Heinrich Hübsch."
			}
		]
	},
	{
		"id": 2,
		"name": "Imperia",
		"category": "Sehenswürdigkeit",
		"description": "Die Imperia ist eine satirische Statue im Hafen von Konstanz, die an das Konzil von Konstanz erinnert. Sie dreht sich langsam um ihre Achse und ist ein beliebtes Fotomotiv.",
		"image": "/images/imperia.jpg",
		"address": "Hafenstraße, 78462 Konstanz",
		"coordinates": {
			"lat": 47.66,
			"lng": 9.18
		}
	},
	{
		"id": 3,
		"name": "Restaurant Ophelia",
		"category": "Restaurant",
		"description": "Das mit zwei Michelin-Sternen ausgezeichnete Restaurant Ophelia bietet eine exquisite Küche in einem eleganten Ambiente. Es befindet sich im Hotel Riva am Ufer des Bodensees.",
		"image": "/images/ophelia.jpg",
		"address": "Seestraße 25, 78464 Konstanz",
		"coordinates": {
			"lat": 47.67,
			"lng": 9.19
		}
	},
	{
		"id": 4,
		"name": "LAGO Shopping-Center",
		"category": "Laden",
		"description": "Das LAGO ist das größte Einkaufszentrum am Bodensee und bietet eine Vielzahl von Geschäften, Restaurants und Cafés. Es ist ein beliebter Treffpunkt für Einheimische und Touristen.",
		"image": "/images/lago.jpg",
		"address": "Bodanstraße 1, 78462 Konstanz",
		"coordinates": {
			"lat": 47.658,
			"lng": 9.176
		}
	},
	{
		"id": 5,
		"name": "Rosgartenmuseum",
		"category": "Museum",
		"description": "Das Rosgartenmuseum ist das städtische Museum für Kunst, Kultur und Geschichte von Konstanz und der Bodenseeregion. Es wurde 1870 gegründet und befindet sich in einem ehemaligen Zunfthaus.",
		"image": "/images/rosgartenmuseum.jpg",
		"address": "Rosgartenstraße 3-5, 78462 Konstanz",
		"coordinates": {
			"lat": 47.661,
			"lng": 9.174
		},
		"timeline": [
			{ "year": "1454", "description": "Das Gebäude wird als Zunfthaus der Metzger errichtet." },
			{
				"year": "1870",
				"description": "Gründung des Museums durch den Apotheker und Stadtrat Ludwig Leiner."
			}
		]
	},
	{
		"id": 6,
		"name": "Archäologisches Landesmuseum Baden-Württemberg",
		"category": "Museum",
		"description": "Das Archäologische Landesmuseum (ALM) in Konstanz ist ein Zweigmuseum des ALM in Stuttgart und zeigt Funde aus der Archäologie, Geschichte und Kultur der Region.",
		"image": "/images/alm.jpg",
		"address": "Benediktinerplatz 5, 78467 Konstanz",
		"coordinates": {
			"lat": 47.665,
			"lng": 9.171
		}
	},
	{
		"id": 7,
		"name": "Café Zeitlos",
		"category": "Café",
		"description": "Gemütliches Café in der Konstanzer Altstadt mit hausgemachten Kuchen, Frühstück und einer großen Auswahl an Kaffeespezialitäten.",
		"image": "/images/placeholder.jpg",
		"address": "Hussenstraße 13, 78462 Konstanz",
		"coordinates": {
			"lat": 47.6609,
			"lng": 9.1749
		}
	},
	{
		"id": 8,
		"name": "Voglhaus Café",
		"category": "Café",
		"description": "Beliebtes Bio-Café mit vegetarischer und veganer Küche. Kreative Frühstücksgerichte und selbstgemachte Limonaden.",
		"image": "/images/placeholder.jpg",
		"address": "Wessenbergstraße 8, 78462 Konstanz",
		"coordinates": {
			"lat": 47.6619,
			"lng": 9.1744
		}
	},
	{
		"id": 9,
		"name": "Seekuh",
		"category": "Bar",
		"description": "Legendäre Konstanzer Bar und Kulturkneipe am Seerhein. Craft Beer, Cocktails und regelmäßig Konzerte auf kleiner Bühne.",
		"image": "/images/placeholder.jpg",
		"address": "Konradigasse 1, 78462 Konstanz",
		"coordinates": {
			"lat": 47.6632,
			"lng": 9.1773
		}
	},
	{
		"id": 10,
		"name": "Brauhaus Johann Albrecht",
		"category": "Bar",
		"description": "Brauhaus-Restaurant mit hauseigenem Bier direkt am Seerhein. Deftige Küche und frisch gebrautes Bier in historischem Ambiente.",
		"image": "/images/placeholder.jpg",
		"address": "Konradigasse 2, 78462 Konstanz",
		"coordinates": {
			"lat": 47.663,
			"lng": 9.177
		}
	},
	{
		"id": 11,
		"name": "Stadtgarten Konstanz",
		"category": "Park",
		"description": "Großer Park direkt am Bodenseeufer mit altem Baumbestand, Spielplätzen, Minigolf und Biergarten. Der beliebteste Erholungsort der Stadt.",
		"image": "/images/placeholder.jpg",
		"address": "Seestraße, 78464 Konstanz",
		"coordinates": {
			"lat": 47.6582,
			"lng": 9.1812
		}
	},
	{
		"id": 12,
		"name": "Lorettowald",
		"category": "Park",
		"description": "Bewaldeter Hügel im Süden von Konstanz mit Wanderwegen und Aussichtspunkten über den Bodensee. Beliebt bei Joggern und Spaziergängern.",
		"image": "/images/placeholder.jpg",
		"address": "Lorettostraße, 78464 Konstanz",
		"coordinates": {
			"lat": 47.6524,
			"lng": 9.1768
		}
	},
	{
		"id": 13,
		"name": "Strandbad Horn",
		"category": "Strandbad",
		"description": "Eines der größten Freibäder am Bodensee mit großer Liegewiese, Sandstrand, Sprungturm und Beachvolleyball. Traumhafter Seeblick.",
		"image": "/images/placeholder.jpg",
		"address": "Eichhornstraße 100, 78464 Konstanz",
		"coordinates": {
			"lat": 47.6527,
			"lng": 9.201
		}
	},
	{
		"id": 14,
		"name": "Schmugglerbucht",
		"category": "Strandbad",
		"description": "Kleine, versteckte Badestelle unterhalb der Seestraße. Bei Einheimischen beliebt als Geheimtipp zum Schwimmen im Bodensee.",
		"image": "/images/placeholder.jpg",
		"address": "Seestraße, 78464 Konstanz",
		"coordinates": {
			"lat": 47.6561,
			"lng": 9.186
		}
	},
	{
		"id": 15,
		"name": "Steigenberger Inselhotel",
		"category": "Hotel",
		"description": "Luxushotel in einem ehemaligen Dominikanerkloster auf einer Insel im Bodensee. Eines der historischsten Hotels Deutschlands.",
		"image": "/images/placeholder.jpg",
		"address": "Auf der Insel 1, 78462 Konstanz",
		"coordinates": {
			"lat": 47.6598,
			"lng": 9.181
		}
	},
	{
		"id": 16,
		"name": "Hotel Barbarossa",
		"category": "Hotel",
		"description": "Historisches Boutique-Hotel am Obermarkt mitten in der Altstadt. Individuell gestaltete Zimmer in einem Gebäude aus dem 15. Jahrhundert.",
		"image": "/images/placeholder.jpg",
		"address": "Obermarkt 8-12, 78462 Konstanz",
		"coordinates": {
			"lat": 47.6621,
			"lng": 9.1746
		}
	},
	{
		"id": 17,
		"name": "Konzil Konstanz",
		"category": "Veranstaltungsort",
		"description": "Historisches Konzilgebäude am Hafen, in dem 1417 das Konklave zur Papstwahl stattfand. Heute Veranstaltungshalle und Restaurant.",
		"image": "/images/placeholder.jpg",
		"address": "Hafenstraße 2, 78462 Konstanz",
		"coordinates": {
			"lat": 47.6596,
			"lng": 9.178
		}
	},
	{
		"id": 18,
		"name": "Stadttheater Konstanz",
		"category": "Veranstaltungsort",
		"description": "Das Theater Konstanz ist eines der ältesten aktiven Theater Deutschlands. Schauspiel, Musiktheater und Junges Theater auf mehreren Bühnen.",
		"image": "/images/placeholder.jpg",
		"address": "Konzilstraße 11, 78462 Konstanz",
		"coordinates": {
			"lat": 47.6593,
			"lng": 9.177
		}
	},
	{
		"id": 19,
		"name": "Münsterturm-Aussichtsplattform",
		"category": "Aussichtspunkt",
		"description": "Nach 193 Stufen erreicht man die Aussichtsplattform des Münsterturms mit 360°-Panorama über Konstanz, den Bodensee und bei klarer Sicht bis zu den Alpen.",
		"image": "/images/placeholder.jpg",
		"address": "Münsterplatz 1, 78462 Konstanz",
		"coordinates": {
			"lat": 47.6603,
			"lng": 9.1757
		}
	},
	{
		"id": 20,
		"name": "Hörnle-Spitze",
		"category": "Aussichtspunkt",
		"description": "Äußerste Spitze der Halbinsel Horn mit unverbautem 180°-Panorama über den Bodensee. Besonders beeindruckend bei Sonnenuntergang.",
		"image": "/images/placeholder.jpg",
		"address": "Hörnleweg, 78464 Konstanz",
		"coordinates": {
			"lat": 47.648,
			"lng": 9.2085
		}
	}
]
